stop_id,stop_name
400001,4 AV/E 10 ST
400002,4 AV/E 12 ST
400003,4 AV/E 13 ST
400007,PARK AV S/E 21 ST
400026,MADISON AV/E 63 ST
400027,MADISON AV/E 65 ST
400028,MADISON AV/E 67 ST
400029,MADISON AV/E 69 ST
400030,MADISON AV/E 72 ST
400031,MADISON AV/E 74 ST
400032,MADISON AV/E 77 ST
400033,MADISON AV/E 81 ST
400034,MADISON AV/E 83 ST
400036,MADISON AV/E 86 ST
400037,MADISON AV/E 89 ST
400038,MADISON AV/E 91 ST
400039,MADISON AV/E 93 ST
400041,MADISON AV/E 98 ST
400042,MADISON AV/E 101 ST
400043,MADISON AV/E 102 ST
400044,MADISON AV/E 104 ST
400045,MADISON AV/E 106 ST
400046,MADISON AV/E 107 ST
400047,MADISON AV/E 109 ST
400048,MADISON AV/E 112 ST
400050,MADISON AV/E 116 ST
400051,MADISON AV/E 118 ST
400053,MADISON AV/E 123 ST
400054,MADISON AV/E 125 ST
400055,MADISON AV/E 127 ST
400056,MADISON AV/E 129 ST
400057,MADISON AV/E 132 ST
400059,5 AV/E 135 ST
400060,5 AV/E 138 ST
400061,W 139 ST/5 AV
400062,MALCOLM X BL/W 139 ST
400065,MALCOLM X BL/W 145 ST
400066,W 147 ST/MALCOLM X BL
400067,W 147 ST/ADAM C POWELL BL
400070,TRINITY PL/RECTOR ST
400071,CHURCH ST/LIBERTY ST
400081,CLEVELAND  PL/SPRING ST
400083,LAFAYETTE ST/E HOUSTON ST
400085,LAFAYETTE ST/E 4 ST
400086,LAFAYETTE ST/ASTOR PL
400087,W 146 ST/MALCOLM X BL
400088,MALCOLM X BL/W 145 ST
400089,MALCOLM X BL/W 142 ST
400091,W 139 ST/MALCOLM X BL
400092,5 AV/W 138 ST
400093,5 AV/W 137 ST
400094,5 AV/W 135 ST
400095,5 AV/W 132 ST
400096,5 AV/W 130 ST
400097,5 AV/W 128 ST
400098,5 AV/W 125 ST
400099,MT MORRIS PK W/W 124 ST
400100,MT MORRIS PK W/W 121 ST
400101,W 120 ST/5 AV
400102,5 AV/W 118 ST
400103,5 AV/W 116 ST
400105,5 AV/W 112 ST
400107,5 AV/EAST 109 ST
400108,5 AV/E 108 ST
400109,5 AV/E 106 ST
400110,5 AV/E 104 ST
400111,5 AV/E 102 ST
400115,5 AV/E 94 ST
400116,5 AV/E 92 ST
400117,5 AV/E 90 ST
400118,5 AV/E 87 ST
400119,5 AV/E 84 ST
400122,5 AV/E 77 ST
400123,5 AV/E 75 ST
400124,5 AV/E 72 ST
400125,5 AV/E 69 ST
400126,5 AV/W 66 ST
400127,5 AV/E 63 ST
400128,5 AV/E 61 ST
400153,BROADWAY/WAVERLY PL
400154,BROADWAY/W 3 ST
400155,BROADWAY/BLEECKER ST
400157,BROADWAY/SPRING ST
400159,BROADWAY/GRAND ST
400166,BROADWAY/PARK PL
400168,BROADWAY/CORTLANDT ST
400170,BROADWAY/RECTOR ST
400176,E 9 ST/BROADWAY
400224,CENTRAL PK N/MALCOLM X BL
400225,CENTRAL PK N/ADAM C POWELL BL
400226,ADAM C POWELL BL/W 113 ST
400227,ADAM C POWELL BL/W 137 ST
400228,ADAM C POWELL BL/W 116 ST
400230,ADAM C POWELL BL/W 121 ST
400231,ADAM C POWELL BL/W 123 ST
400233,ADAM C POWELL BL/W 127 ST
400234,ADAM C POWELL BL/W 129 ST
400236,ADAM C POWELL BL/W 133 ST
400237,ADAM C POWELL BL/W 135 ST
400238,ADAM C POWELL BL/W 139 ST
400239,ADAM C POWELL BL/W 141 ST
400240,ADAM C POWELL BL/W 143 ST
400241,ADAM C POWELL BL/W 145 ST
400242,ADAM C POWELL BL/W 147 ST
400248,EDGECOMBE AV/W 155 ST
400249,EDGECOMBE AV/W 158 ST
400250,EDGECOMBE AV/W 160 ST
400251,EDGECOMBE AV/W 162 ST
400252,EDGECOMBE AV/W 164 ST
400258,BROADWAY/W 168 ST
400259,W 166 ST/ST NICHOLAS AV
400263,EDGECOMBE AV/W 164 ST
400264,EDGECOMBE AV/W 162 ST
400265,EDGECOMBE AV/W 160 ST
400266,EDGECOMBE AV/W 158 ST
400267,EDGECOMBE AV/W 155 ST
400268,W 155 ST/EDGECOMBE AV
400271,ADAM C POWELL BL/W 154 ST
400272,ADAM C POWELL BL/W 151 ST
400273,ADAM C POWELL BL/W 149 ST
400274,ADAM C POWELL BL/W 148 ST
400275,ADAM C POWELL BL/W 145 ST
400276,ADAM C POWELL BL/W 142 ST
400277,ADAM C POWELL BL/W 140 ST
400278,ADAM C POWELL BL/W 138 ST
400279,ADAM C POWELL BL/W 135 ST
400280,ADAM C POWELL BL/W 132 ST
400281,ADAM C POWELL BL/W 130 ST
400282,ADAM C POWELL BL/W 128 ST
400283,ADAM C POWELL BL/W 125 ST
400284,ADAM C POWELL BL/W 122 ST
400285,ADAM C POWELL BL/W 120 ST
400287,ADAM C POWELL BL/W 116 ST
400288,ADAM C POWELL BL/W 114 ST
400289,ADAM C POWELL BL/W 112 ST
400290,CENTRAL PK N/ADAM C POWELL BL
400292,CENTRAL PK N/5 AV
400322,5 AV/W 39 ST
400323,5 AV/W 35 ST
400324,5 AV/W 33 ST
400325,5 AV/W 31 ST
400326,5 AV/W 29 ST
400327,5 AV/W 26 ST
400329,5 AV/W 23 ST
400330,5 AV/W 20 ST
400331,5 AV/W 17 ST
400333,5 AV/W 12 ST
400334,5 AV/W 10 ST
400335,E 8 ST/5 AV
400336,E 8 ST/UNIVERSITY PL
400337,E 8 ST/MERCER ST
400352,MADISON AV/E 30 ST
400353,32 ST/MADISON AV
400354,MADISON AV/E 34 ST
400358,MADISON AV/E 45 ST
400360,MADISON AV/E 49 ST
400361,MADISON AV/E 52 ST
400362,MADISON AV/E 55  ST
400363,MADISON AV/E 57 ST
400364,MADISON AV/E 60  ST
400390,CATHEDRAL PY/FRED DOUGLASS BL
400394,MANHATTAN AV/W 116 ST
400395,MANHATTAN AV/W 119 ST
400396,MANHATTAN AV/W 121 ST
400398,ST NICHOLAS AV/W 127 ST
400399,ST NICHOLAS AV/W 130 ST
400400,ST NICHOLAS AV/W 133 ST
400401,ST NICHOLAS AV/W 135 ST
400403,ST NICHOLAS AV/W 139 ST
400404,ST NICHOLAS AV/W 141 ST
400405,ST NICHOLAS AV/W 144 ST
400406,ST NICHOLAS AV/W 145 ST
400408,ST NICHOLAS AV/W 151 ST
400409,ST NICHOLAS AV/W 153 ST
400414,ST NICHOLAS AV/W 163 ST
400418,ST NICHOLAS AV/W 170 ST
400419,ST NICHOLAS AV/W 173 ST
400422,ST NICHOLAS AV/W 179 ST
400423,ST NICHOLAS AV/W 181 ST
400426,ST NICHOLAS AV/W 187 ST
400448,ST NICHOLAS AV/W 192 ST
400449,ST NICHOLAS AV/W 190 ST
400452,ST NICHOLAS AV/W 184 ST
400453,ST NICHOLAS AV/W 181 ST
400454,ST NICHOLAS AV/W 178 ST
400457,ST NICHOLAS AV/W 172 ST
400461,ST NICHOLAS AV/W 164 ST
400462,ST NICHOLAS AV/W 162 ST
400466,ST NICHOLAS AV/W 152 ST
400467,ST NICHOLAS AV/W 150 ST
400468,ST NICHOLAS AV/W 148 ST
400469,ST NICHOLAS AV/W 145 ST
400470,ST NICHOLAS AV/W 142 ST
400471,ST NICHOLAS AV/W 141 ST
400472,ST NICHOLAS AV/W 138 ST
400473,ST NICHOLAS AV/W 135 ST
400474,ST NICHOLAS AV/W 133 ST
400475,ST NICHOLAS AV/W 130 ST
400476,ST NICHOLAS AV/W 128 ST
400477,ST NICHOLAS AV/W 125 ST
400479,MANHATTAN AV/W 122 ST
400482,MANHATTAN AV/W 116 ST
400483,MANHATTAN AV/W 114 ST
400484,MANHATTAN AV/W 112 ST
400485,CATHEDRAL PKY/MANHATTAN AV
400486,110 ST/CENTRAL PK W
400512,5 AV/W 59 ST
400514,5 AV/W 52 ST
400515,5 AV/W 49 ST
400516,5 AV/W 46 ST
400518,5 AV/W 41 ST
400519,5 AV/W 38 ST
400561,MADISON AV/E 42 ST
400595,CATHEDRAL PY/MANHATTAN AV
400596,CATHEDRAL PY/MORNINGSIDE DR
400597,CATHEDRAL PY/AMSTERDAM AV
400598,CATHEDRAL PY/BROADWAY
400599,RIVERSIDE DR/W 112 ST
400602,RIVERSIDE DR/W 119 ST
400609,BROADWAY/W 137 ST
400610,BROADWAY/W 139 ST
400611,BROADWAY/W 141 ST
400612,BROADWAY/W 143 ST
400613,BROADWAY/W 145 ST
400614,BROADWAY/W 147 ST
400615,BROADWAY/W 149 ST
400616,BROADWAY/W 151 ST
400617,BROADWAY/W 153 ST
400618,BROADWAY/W 155 ST
400619,BROADWAY/W 157 ST
400620,BROADWAY/W 159 ST
400621,BROADWAY/W 161 ST
400622,BROADWAY/W 163 ST
400623,BROADWAY/W 165 ST
400624,BROADWAY/W 168 ST
400626,FT WASHINGTON AV/W 171 ST
400627,FT WASHINGTON AV/W 173 ST
400628,FT WASHINGTON AV/W 175 ST
400629,FT WASHINGTON AV/W 177 ST
400630,FT WASHINGTON AV/W 179 ST
400631,FT WASHINGTON AV/W 181 ST
400632,FT WASHINGTON AV/W 183 ST
400633,FT WASHINGTON AV/W 185 ST
400634,FT WASHINGTON AV/W 187 ST
400635,FT WASHINGTON AV/W 190 ST
400636,FT WASHINGTON AV/CABRINI BL
400639,FT WASHINGTON AV/CABRINI BL
400640,FT WASHINGTON AV/W 190 ST
400641,FT WASHINGTON AV/W 187 ST
400642,FT WASHINGTON AV/W 185 ST
400643,FT WASHINGTON AV/W 183 ST
400644,FT WASHINGTON AV/W 181 ST
400645,FT WASHINGTON AV/W 179 ST
400646,FT WASHINGTON AV/W 177 ST
400647,FT WASHINGTON AV/W 174 ST
400648,FT WASHINGTON AV/W 172 ST
400649,FT WASHINGTON AV/W 170 ST
400655,BROADWAY/W 157 ST
400656,BROADWAY/W 155 ST
400657,BROADWAY/W 152 ST
400658,BROADWAY/W 150 ST
400659,BROADWAY/W 147 ST
400661,BROADWAY/W 142 ST
400662,BROADWAY/W 140 ST
400663,BROADWAY/W 138 ST
400676,CATHEDRAL PY/BROADWAY
400677,CATHEDRAL PKY/AMSTERDAM AV
400678,CATHEDRAL PY/COLUMBUS AV
400716,W 34 ST/BROADWAY
400719,W HOUSTON ST/SULLIVAN ST
400722,AV OF THE AMERICAS/W 3 ST
400723,AV OF THE AMERICAS/WAVERLY PL
400724,AV OF THE AMERICAS/W 10 ST
400725,AV OF THE AMERICAS/W 12 ST
400726,AV OF THE AMERICAS/W 15 ST
400731,AV OF THE AMERICAS/W 27 ST
400732,AV OF THE AMERICAS/W 29 ST
400744,W 57 ST/7 AV
400745,W 57 ST/BROADWAY
400747,BROADWAY/W 63 ST
400750,BROADWAY/W 69 ST
400751,W 72 ST/BROADWAY
400752,W 72 ST/WEST END AV
400755,RIVERSIDE DR/W 77 ST
400756,RIVERSIDE DR/W 79 ST
400759,RIVERSIDE DR/W 85 ST
400760,RIVERSIDE DR/W 87 ST
400761,RIVERSIDE DR/W 89 ST
400762,RIVERSIDE DR/W 91 ST
400764,RIVERSIDE DR/W 97 ST
400768,RIVERSIDE DR/W 106 ST
400769,RIVERSIDE DR/W 108 ST
400771,RIVERSIDE DR/W 114 ST
400772,RIVERSIDE DR/W 116 ST
400796,BROADWAY/W 171 ST
400798,BROADWAY/W 175 ST
400799,W 178 ST/BROADWAY
400808,BROADWAY/W 178 ST
400809,BROADWAY/W 176 ST
400810,BROADWAY/W 174 ST
400811,BROADWAY/W 172 ST
400812,BROADWAY/W 170 ST
400814,BROADWAY/W 164 ST
400815,BROADWAY/W 162 ST
400816,BROADWAY/W 160 ST
400832,RIVERSIDE DR/W 119 ST
400834,RIVERSIDE DR/W 116 ST
400835,RIVERSIDE DR/W 114 ST
400836,RIVERSIDE DR/W 112 ST
400837,RIVERSIDE DR/W 108 ST
400838,RIVERSIDE DR/W 106 ST
400840,RIVERSIDE DR/W 100 ST
400841,RIVERSIDE DR/W 97 ST
400843,RIVERSIDE DR/W 91 ST
400846,RIVERSIDE DR/W 86 ST
400847,RIVERSIDE DR/W 84 ST
400848,RIVERSIDE DR/W 82 ST
400849,RIVERSIDE DR/W 80 ST
400851,RIVERSIDE DR/W 76 ST
400852,RIVERSIDE DR/W 73 ST
400853,W 72 ST/WEST END AV
400854,W 72 ST/BROADWAY
400856,BROADWAY/W 68 ST
400858,BROADWAY/W 64 ST
400860,BROADWAY/W 61 ST
400861,COLUMBUS CIR/8 AV
400890,W HOUSTON ST/GREENE ST
400903,STATE ST/BRIDGE ST
400910,CHURCH ST/CHAMBERS ST
400913,AV OF THE AMERICAS/WHITE ST
400915,6 AV/THOMPSON ST
400916,AV OF THE AMERICAS/BROOME ST
400917,6 AV/SPRING ST
400919,6 AV/W HOUSTON ST
400929,AV OF THE AMERICAS/W 23 ST
400933,AV OF THE AMERICAS/W 34 ST
400936,AV OF THE AMERICAS/W 42 ST
400938,AV OF THE AMERICAS/W 47 ST
400940,AV OF THE AMERICAS/W 51 ST
400941,AV OF THE AMERICAS/W 54 ST
400943,CENTRAL PK S/6 AV
400948,7 AV/WEST 58 ST
400950,7 AV/W 54 ST
400951,7 AV/W 53 ST
400988,BROADWAY/THAMES ST
401014,CENTRAL PK S/7 AV
401015,CENTRAL PK S/COLUMBUS CI
401016,BROADWAY/W 61 ST
401021,AMSTERDAM AV/W 72 ST
401022,AMSTERDAM AV/W 75 ST
401023,AMSTERDAM AV/W 77 ST
401024,AMSTERDAM AV/W 79 ST
401025,AMSTERDAM AV/W 81 ST
401026,AMSTERDAM AV/W 83 ST
401027,AMSTERDAM AV/W 86 ST
401029,AMSTERDAM AV/W 91 ST
401030,AMSTERDAM AV/W 93 ST
401031,AMSTERDAM AV/W 96 ST
401032,AMSTERDAM AV/W 98 ST
401033,AMSTERDAM AV/W 100 ST
401034,AMSTERDAM AV/W 102 ST
401035,AMSTERDAM AV/W 104 ST
401036,W 106 ST/AMSTERDAM AV
401037,W 106 ST/COLUMBUS AV
401038,MANHATTAN AV/W 106 ST
401039,MANHATTAN AV/W 109 ST
401040,MANHATTAN AV/CATHEDRAL PKY
401044,W 116 ST/FRED DOUGLASS BL
401045,W 116 ST/ADAM C POWELL BL
401047,MALCOLM X BL/W 119 ST
401051,MALCOLM X BL/W 127 ST
401052,MALCOLM X BL/W 129 ST
401055,MALCOLM X BL/W 135 ST
401056,MALCOLM X BL/W 137 ST
401069,MALCOLM X BL/W 135 ST
401070,MALCOLM X BL/W 132 ST
401074,MALCOLM X BL/W 122 ST
401078,W 116 ST/ST NICHOLAS AV
401079,W 116 ST/FRED DOUGLASS BL
401084,MANHATTAN AV/W 108 ST
401085,MANHATTAN AV/W 106 ST
401086,COLUMBUS AV/W 106 ST
401087,COLUMBUS AV/W 102 ST
401088,COLUMBUS AV/W 100 ST
401090,COLUMBUS AV/W 94 ST
401091,COLUMBUS AV/W 92 ST
401092,COLUMBUS AV/W 89 ST
401093,COLUMBUS AV/W 86 ST
401094,COLUMBUS AV/W 84 ST
401096,COLUMBUS AV/W 78 ST
401099,COLUMBUS AV/W 72 ST
401100,COLUMBUS AV/W 69 ST
401102,COLUMBUS AV/W 63 ST
401139,GRAND ST/CLINTON ST
401140,GRAND ST/PITT ST
401141,GRAND ST/EAST BROADWAY
401142,GRAND ST/JACKSON ST
401147,GRAND ST/COLUMBIA ST
401149,GRAND ST/PITT ST
401150,GRAND ST/CLINTON ST
401168,E BROADWAY/FORSYTH ST
401169,E BROADWAY/PIKE ST
401182,E 14 ST/AV B
401183,E 14 ST/AV A
401191,E 14 ST/3 AV
401192,E 14 ST/2 AV
401193,E 14 ST/1 AV
401194,E 14 ST/AV A
401195,E 14 ST/AV B
401202,ESSEX ST/E HOUSTON ST
401206,ESSEX ST/GRAND ST
401208,E BROADWAY/PIKE ST
401209,E BROADWAY/MARKET ST
401210,E BROADWAY/CATHERINE ST
401220,HUDSON ST/PERRY ST
401223,8 AV/W 14 ST
401224,8 AV/W 17 ST
401225,8 AV/W 20 ST
401226,8 AV/W 23 ST
401227,8 AV/W 25 ST
401229,8 AV/W 28 ST
401231,8 AV/W 34 ST
401232,8 AV/W 37 ST
401239,8 AV/W 52 ST
401245,CENTRAL PK W/W 67 ST
401248,CENTRAL PK W/W 72 ST
401250,CENTRAL PK W/W 77 ST
401252,CENTRAL PK W/W 82 ST
401253,CENTRAL PK W/W 84 ST
401254,CENTRAL PK W/W 87 ST
401255,CENTRAL PK W/W 88 ST
401256,CENTRAL PK W/W 90 ST
401257,CENTRAL PK W/W 92 ST
401258,CENTRAL PK W/W 94 ST
401259,CENTRAL PK W/W 97 ST
401261,CENTRAL PK W/W 100 ST
401262,CENTRAL PK W/W 102 ST
401263,CENTRAL PK W/W 104 ST
401264,CENTRAL PK W/W 106 ST
401265,CENTRAL PK W/W 108 ST
401267,FRED DOUGLASS BL/W 111 ST
401268,FRED DOUGLASS BL/W 113 ST
401269,FRED DOUGLASS BL/W 116 ST
401270,FRED DOUGLASS BL/W 119 ST
401271,FRED DOUGLASS BL/W 121 ST
401272,FRED DOUGLASS BL/W 123 ST
401274,FRED DOUGLASS BL/W 127 ST
401275,FRED DOUGLASS BL/W 129 ST
401276,FRED DOUGLASS BL/W 131 ST
401277,FRED DOUGLASS BL/W 133 ST
401281,FRED DOUGLASS BL/W 141 ST
401282,FRED DOUGLASS BL/W 143 ST
401286,FRED DOUGLASS BL/W 153 ST
401287,FRED DOUGLASS BL/W 155 ST
401288,FRED DOUGLASS BL/W 158 ST
401294,W 14 ST/7 AV
401301,HUDSON ST/CHARLTON ST
401302,HUDSON ST/W HOUSTON ST
401305,FRED DOUGLASS BL/W 155 ST
401306,FRED DOUGLASS BL/W 154 ST
401307,FRED DOUGLASS BL/W 152 ST
401308,FRED DOUGLASS BL/W 150 ST
401310,FRED DOUGLASS BL/W 145 ST
401311,FRED DOUGLASS BL/W 142 ST
401312,FRED DOUGLASS BL/W 140 ST
401313,FRED DOUGLASS BL/W 138 ST
401314,FRED DOUGLASS BL/W 135 ST
401315,FRED DOUGLASS BL/W 133 ST
401317,FRED DOUGLASS BL/W 129 ST
401324,FRED DOUGLASS BL/W 112 ST
401325,FRED DOUGLASS BL/CATHEDRAL PKY
401326,CENTRAL PK W/W 108 ST
401327,CENTRAL PK W/W 106 ST
401328,CENTRAL PK W/W 104 ST
401329,CENTRAL PK W/W 102 ST
401330,CENTRAL PK W/W 100 ST
401331,CENTRAL PK W/W 97 ST
401333,CENTRAL PK W/W 94 ST
401334,CENTRAL PK W/W 92 ST
401335,CENTRAL PK W/W 90 ST
401336,CENTRAL PK W/W 88 ST
401337,CENTRAL PK W/W 86 ST
401338,CENTRAL PK W/W 84 ST
401339,CENTRAL PK W/W 81 ST
401341,CENTRAL PK W/W 77 ST
401342,CENTRAL PK W/W 74 ST
401343,CENTRAL PK W/W 72 ST
401344,CENTRAL PK W/W 70 ST
401345,CENTRAL PK W/W 68 ST
401348,BROADWAY/W 63 ST
401359,7 AV/W 37 ST
401360,7 AV/W 34 ST
401361,7 AV/W 31 ST
401363,7 AV/W 28 ST
401364,7 AV/W 25 ST
401366,7 AV/W 20 ST
401371,7 AV S/WAVERLY PL
401372,7 AV S/W 10 ST
401373,7 AV S/BARROW ST
401374,7 AV S/BEDFORD ST
401375,7 AV S/CLARKSON ST
401377,VARICK ST/CHARLTON ST
401379,VARICK ST/WATTS ST
401380,VARICK ST/NORTH MOORE ST
401381,W BROADWAY/DUANE ST
401386,HUDSON ST/W 13 ST
401387,HUDSON ST/HORATIO ST
401388,HUDSON ST/W 12 ST
401393,BETHUNE ST/GREENWICH ST
401398,10 AV/W 21 ST
401400,10 AV/W 25 ST
401401,10 AV/W 27 ST
401402,10 AV/W 30 ST
401407,10 AV/W 42 ST
401408,10 AV/W 45 ST
401409,10 AV/W 47 ST
401410,10 AV/W 49 ST
401411,10 AV/W 53 ST
401412,10 AV/W 55 ST
401413,10 AV/W 57 ST
401414,AMSTERDAM AV/W 59 ST
401416,AMSTERDAM AV/W 62 ST
401417,AMSTERDAM AV/W 65 ST
401435,AMSTERDAM AV/W 106 ST
401436,AMSTERDAM AV/W 109 ST
401438,AMSTERDAM AV/W 112 ST
401440,AMSTERDAM AV/W 116 ST
401441,AMSTERDAM AV/W 118 ST
401442,AMSTERDAM AV/W 120 ST
401443,AMSTERDAM AV/W 123 ST
401444,AMSTERDAM AV/W 125 ST
401445,AMSTERDAM AV/W 126 ST
401446,AMSTERDAM AV/W 129 ST
401447,AMSTERDAM AV/W 131 ST
401448,AMSTERDAM AV/W 133 ST
401453,HUDSON ST/CHRISTOPHER ST
401458,AMSTERDAM AV/W 131 ST
401459,AMSTERDAM AV/W 129 ST
401462,AMSTERDAM AV/W 123 ST
401463,AMSTERDAM AV/W 120 ST
401464,AMSTERDAM AV/W 118 ST
401465,AMSTERDAM AV/W 116 ST
401466,AMSTERDAM AV/W 114 ST
401467,AMSTERDAM AV/W 112 ST
401469,COLUMBUS AV/CATHEDRAL PY
401470,COLUMBUS AV/W 108 ST
401489,9 AV/W 59 ST
401490,9 AV/W 57 ST
401491,9 AV/W 55 ST
401492,9 AV/W 52 ST
401493,9 AV/W 50 ST
401495,9 AV/W 46 ST
401496,9 AV/W 44 ST
401497,9 AV/W 42 ST
401500,9 AV/W 35 ST
401501,9 AV/W 34 ST
401502,9 AV/W 30 ST
401503,9 AV/W 28 ST
401506,9 AV/W 20 ST
401507,9 AV/W 18 ST
401528,WEST ST/CHRISTOPHER ST
401529,W 10 ST/WASHINGTON ST
401531,W 10 ST/BLEECKER ST
401532,W 10 ST/7 AV S
401533,W 10 ST/WAVERLY PL
401535,GREENWICH AV/CHRISTOPHER ST
401536,W 8 ST/AV OF THE AMERICAS
401538,W 8 ST/5 AV
401542,ST MARKS PL/3 AV
401543,ST MARKS PL/2 AV
401544,ST MARKS PL/1 AV
401545,ST MARKS PL/AV A
401547,E 10 ST/AV A
401548,E 10 ST/AV B
401549,E 10 ST/AV C
401552,E 10 ST/AV C
401553,E 10 ST/AV B
401554,E 10 ST/AV A
401555,E 9 ST/AV A
401556,E 9 ST/1 AV
401557,E 9 ST/2 AV
401558,E 9 ST/3 AV
401559,E 9 ST/4 AV
401561,E 9 ST/UNIVERSITY PL
401562,W 9 ST/5 AV
401563,W 9 ST/AV OF THE AMERICAS
401564,CHRISTOPHER ST/GREENWICH AV
401565,CHRISTOPHER ST/WAVERLY PL
401566,CHRISTOPHER ST/7 AV S
401567,CHRISTOPHER ST/BLEECKER ST
401568,CHRISTOPHER ST/HUDSON ST
401569,CHRISTOPHER ST/GREENWICH ST
401570,CHRISTOPHER ST/WASHINGTON ST
401575,W 14 ST/8 AV
401577,W 14 ST/6 AV
401579,E 14 ST/UNIVERSITY PL
401587,E 14 ST/AV C
401589,AV C/E 12 ST
401591,E 10 ST/AV D
401595,AV D/E 6 ST
401596,AV D/E 4 ST
401598,E HOUSTON ST/BARUCH DR
401599,E HOUSTON ST/MANGIN ST
401600,F. D. R. DRIVE/555 FDR DR
401608,8 AV/BLEECKER ST
401609,8 AV/W 4 ST
401610,AV A/E 11 ST
401612,AV A/E 5 ST
401624,COLUMBIA ST/RIVINGTON ST
401625,AV D/E HOUSTON ST
401626,AV D/E 5 ST
401630,AV C/E 12 ST
401633,E 14 ST/AV C
401657,AV A/E 5 ST
401659,AV A/E 11 ST
401660,AV A/E 14 ST
401664,WATER ST/BROAD ST
401665,WATER ST/OLD SLIP
401666,WATER ST/WALL ST
401669,PEARL ST/PECK SLIP
401670,ST JAMES PL/R F WAGNER SR PL
401675,PIKE ST/DIVISION ST
401679,ALLEN ST/DELANCEY ST
401681,ALLEN ST/STANTON ST
401682,1 AV/E 2 ST
401685,1 AV/ST MARKS PL
401686,1 AV/E 11 ST
401687,1 AV/E 14 ST
401688,1 AV/E 17 ST
401689,1 AV/E 20 ST
401690,1 AV/E 23 ST
401691,1 AV/E 25 ST
401694,1 AV/E 31 ST
401696,1 AV/E 36 ST
401697,1 AV/E 39 ST
401698,1 AV/E 42 ST
401699,1 AV/E 45 ST
401701,1 AV/MITCHELL PL
401702,1 AV/E 52 ST
401703,1 AV/E 55 ST
401704,1 AV/E 57 ST
401706,1 AV/E 64 ST
401707,1 AV/E 67 ST
401708,1 AV/E 70 ST
401709,1 AV/E 72 ST
401710,1 AV/E 75 ST
401711,1 AV/E 77 ST
401712,1 AV/E 79 ST
401715,1 AV/E 86 ST
401716,1 AV/E 89 ST
401718,1 AV/E 93 ST
401721,1 AV/E 99 ST
401722,1 AV/E 102 ST
401723,1 AV/E 106 ST
401724,1 AV/E 108 ST
401725,1 AV/E 111 ST
401726,1 AV/E 113 ST
401727,1 AV/E 116 ST
401729,1 AV/E 120 ST
401730,1 AV/PALADINO AV
401731,1 AV/E 125 ST
401732,E 126 ST/2 AV
401738,2 AV/E 125 ST
401739,2 AV/E 122 ST
401740,2 AV/E 119 ST
401741,2 AV/E 116 ST
401742,2 AV/E 113 ST
401744,2 AV/E 108 ST
401745,2 AV/E 106 ST
401746,2 AV/103 ST
401747,2 AV/E 101 ST
401748,2 AV/E 97 ST
401749,2 AV/E 96 ST
401753,2 AV/E 87 ST
401754,2 AV/E 84 ST
401755,2 AV/E 82 ST
401756,2 AV/E 78 ST
401758,2 AV/E 75 ST
401759,2 AV/E 72 ST
401760,2 AV/E 70 ST
401761,2 AV/E 68 ST
401762,2 AV/E 66 ST
401763,2 AV/E 64 ST
401764,2 AV/E 61 ST
401765,2 AV/E 57 ST
401768,2 AV/E 50 ST
401769,2 AV/E 46 ST
401771,2 AV/E 42 ST
401772,2 AV/E 39 ST
401775,2 AV/E 31 ST
401778,2 AV/E 25 ST
401779,2 AV/E 23 ST
401780,2 AV/E 20 ST
401781,2 AV/E 17 ST
401782,2 AV/E 14 ST
401784,2 AV/E 9 ST
401785,2 AV/E 6 ST
401786,2 AV/E 3 ST
401787,E HOUSTON ST/FORSYTH ST
401793,ALLEN ST/CANAL ST
401797,PEARL ST/FRANKFORT ST
401802,WATER ST/HANOVER SQ
401806,WORTH ST/CENTRE ST
401808,CENTRE ST/CHAMBERS ST
401812,W 42 ST/12 AV
401813,W 42 ST/11 AV
401814,W 42 ST/10 AV
401818,W 34 ST/9 AV
401819,W 34 ST/8 AV
401821,W 34 ST/BROADWAY
401822,E 34 ST/5 AV
401824,E 34 ST/PARK AV
401826,E 34 ST/3 AV
401827,E 34 ST/2 AV
401832,E 23 ST/2 AV
401833,E 23 ST/1 AV
401840,E 34 ST/3 AV
401842,E 34 ST/PARK AV
401844,W 34 ST/5 AV
401847,W 34 ST/7 AV
401848,W 34 ST/8 AV
401850,8 AV/W 40 ST
401851,W 42 ST/8 AV
401852,W 42 ST/9 AV
401853,W 42 ST/10 AV
401857,WATERSIDE/WATERSIDE 1
401858,WATERSIDE/WATERSIDE 2
401867,W 81 ST/COLUMBUS AV
401868,W 81 ST/CENTRAL PK W
401869,E 79 ST TRANSVERSE/E 79 ST TRANSVERSE
401870,E 79 ST/5 AV
401875,E 79 ST/2 AV
401876,E 79 ST/1 AV
401877,YORK AV/E 79 ST
401878,E 80 ST/EAST END AV
401880,E 79 ST/EAST END AV
401881,E 79 ST/YORK AV
401882,E 79 ST/1 AV
401883,E 79 ST/2 AV
401884,E 79 ST/3 AV
401887,E 79 ST/MADISON AV
401889,E 79 ST TRANSVERSE/E 79 ST TRANSVERSE
401890,W 81 ST/CENTRAL PK W
401893,W 79 ST/BROADWAY
401897,W 86 ST/AMSTERDAM AV
401898,W 86 ST/COLUMBUS AV
401899,W 86 ST/CENTRAL PK W
401900,W 86 ST/TRANSVERSE
401901,E 84 ST/5 AV
401903,E 86 ST/MADISON AV
401905,E 86 ST/LEXINGTON  AV
401906,E 86 ST/3 AV
401908,E 86 ST/1 AV
401909,YORK AV/E 86 ST
401910,YORK AV/E 88 ST
401916,YORK AV/E 91 ST
401917,YORK AV/E 88 ST
401919,E 86 ST/1 AV
401920,E 86 ST/2 AV
401921,E 86 ST/3 AV
401922,E 86 ST/LEXINGTON AV
401924,E 86 ST/MADISON AV
401925,E 86 ST/5 AV
401926,W 86 ST/TRANSVERSE
401927,W 86 ST/CENTRAL PK W
401929,W 86 ST/AMSTERDAM AV
401930,W 86 ST/BROADWAY
401933,W 96 ST/WEST END AV
401934,W 96 ST/BROADWAY
401935,W 96 ST/AMSTERDAM AV
401936,W 96 ST/COLUMBUS AV
401937,W 96 ST/CENTRAL PK W
401939,E 96 ST/MADISON AV
401941,E 96 ST/LEXINGTON AV
401942,E 96 ST/3 AV
401943,E 96 ST/2 AV
401946,3 AV/E 99 ST
401947,3 AV/E 102 ST
401948,3 AV/E 104 ST
401950,E 106 ST/2 AV
401951,E 106 ST/1 AV
401954,E 97 ST/1 AV
401955,E 97 ST/2 AV
401957,E 96 ST/3 AV
401958,E 96 ST/LEXINGTON AV
401960,E 96 ST/MADISON AV
401961,E 97 ST/5 AV
401964,W 96 ST/AMSTERDAM AV
401965,W 96 ST/BROADWAY
401966,W 97 ST/WEST END AV
401968,E 105 ST/1 AV
401969,E 106 ST/1 AV
401970,E 106 ST/2 AV
401971,E 106 ST/3 AV
401973,LEXINGTON AV/E 104 ST
401974,LEXINGTON AV/E 102 ST
401977,W 106 ST/BROADWAY
401988,W 116 ST/MALCOLM X BL
401989,W 116 ST/5 AV
401990,E 116 ST/MADISON AV
401991,E 116 ST/PARK AV
401992,E 116 ST/LEXINGTON AV
401993,E 116 ST/3 AV
401994,E 116 ST/2 AV
401998,PLEASANT AV/E 120 ST
401999,E 116 ST/PLEASANT AV
402000,E 116 ST/1 AV
402001,E 116 ST/2 AV
402002,E 116 ST/3 AV
402003,E 116 ST/LEXINGTON AV
402004,E 116 ST/PARK AV
402005,E 116 ST/MADISON AV
402006,E 116 ST/5 AV
402016,W 106 ST/COLUMBUS AV
402017,W 106 ST/AMSTERDAM AV
402018,W 106 ST/BROADWAY
402022,W HOUSTON ST/AV OF THE AMERICAS
402023,W HOUSTON ST/SULLIVAN ST
402024,W HOUSTON ST/W BROADWAY
402028,E HOUSTON ST/MOTT ST
402030,E HOUSTON ST/BOWERY
402032,E HOUSTON ST/ESSEX ST
402033,E HOUSTON ST/NORFOLK ST
402034,E HOUSTON ST/CLINTON ST
402036,AV C/E 3 ST
402037,AV C/E 5 ST
402038,AV C/E 7 ST
402039,AV C/E 11 ST
402041,AV C/E 14 ST
402042,AV C/E 16 ST
402043,AV C/FDR DRIVE
402048,E 29 ST/1 AV
402049,E 29 ST/2 AV
402052,E 23 ST/AV C
402054,AV C/E 20 ST
402055,AV C/E 18 ST
402056,AV C/E 16 ST
402057,AV C/E 14 ST
402067,E HOUSTON ST/AV B
402068,E HOUSTON ST/AV A
402071,E HOUSTON ST/BOWERY
402080,CHAMBERS ST/WEST ST
402085,FRANKFORT ST/PEARL ST
402088,MADISON ST/OLIVER ST
402090,MADISON ST/MARKET ST
402091,MADISON ST/PIKE ST
402092,MADISON ST/RUTGERS ST
402093,MADISON ST/JEFFERSON ST
402094,MADISON ST/CLINTON ST
402095,MADISON ST/MONTGOMERY ST
402096,MADISON ST/GOUVERNEUR ST
402097,MADISON ST/GOUVERNEUR ST
402100,GRAND ST/FDR DR
402102,CHERRY ST/JACKSON ST
402103,JACKSON ST/MADISON ST
402104,MADISON ST/JACKSON ST
402105,MADISON ST/GOUVERNEUR ST
402106,MADISON ST/MONTGOMERY ST
402107,MADISON ST/CLINTON ST
402108,MADISON ST/JEFFERSON ST
402109,MADISON ST/RUTGERS ST
402110,MADISON ST/PIKE ST
402111,MADISON ST/MARKET ST
402112,MADISON ST/CATHERINE ST
402118,CHAMBERS ST/BROADWAY
402119,CHAMBERS ST/CHURCH ST
402120,CHAMBERS ST/HUDSON ST
402124,W 23 ST/10 AV
402125,W 23 ST/9 AV
402126,W 23 ST/8 AV
402127,W 23 ST/7 AV
402128,W 23 ST/6 AV
402130,E 23 ST/BROADWAY
402132,E 23 ST/PARK AV S
402134,E 23 ST/3 AV
402142,E 20 ST/1 AV
402143,E 23 ST/1 AV
402144,E 23 ST/2 AV
402145,E 23 ST/3 AV
402152,W 23 ST/AV OF THE AMERICAS
402153,W 23 ST/7 AV
402154,W 23 ST/8 AV
402155,W 23 ST/9 AV
402157,W 23 ST/11 AV
402160,12 AV/W 43 ST
402161,12 AV/W 46 ST
402162,12 AV/W 48 ST
402163,W 50 ST/12 AV
402164,W 50 ST/11 AV
402165,W 50 ST/10 AV
402166,W 50 ST/9 AV
402167,W 50 ST/8 AV
402169,W 50 ST/AV OF THE AMERICAS
402171,E 50 ST/5 AV
402172,E 50 ST/MADISON AV
402173,E 50 ST/LEXINGTON AV
402174,E 50 ST/3 AV
402175,E 50 ST/2 AV
402183,E 49 ST/1 AV
402185,E 49 ST/3 AV
402186,E 49 ST/LEXINGTON AV
402188,E 49 ST/MADISON AV
402189,W 49 ST/5 AV
402191,W 49 ST/AV OF THE AMERICAS
402194,W 49 ST/9 AV
402195,W 49 ST/10 AV
402205,W 57 ST/11 AV
402214,E 57 ST/LEXINGTON AV
402215,E 57 ST/3 AV
402216,E 57 ST/2 AV
402217,E 57 ST/1 AV
402218,E 57 ST/SUTTON PL
402221,E 55 ST/1 AV
402222,E 57 ST/1 AV
402223,E 57 ST/2 AV
402224,E 57 ST/3 AV
402228,W 57 ST/5 AV
402229,W 57 ST/AV OF THE AMERICAS
402233,W 57 ST/9 AV
402269,W 72 ST/CENTRAL PK W
402290,E 72 ST/MADISON AV
402292,E 72 ST/LEXINGTON AV
402293,E 72 ST/3 AV
402295,E 72 ST/1 AV
402296,E 72 ST/YORK AV
402298,E 72 ST/1 AV
402299,E 72 ST/2 AV
402300,E 72 ST/3 AV
402301,E 72 ST/LEXINGTON AV
402303,E 72 ST/MADISON AV
402328,SUTTON PL/SUTTON SQ
402330,YORK AV/E 63 ST
402331,YORK AV/E 66 ST
402334,YORK AV/E 72 ST
402336,YORK AV/E 76 ST
402338,YORK AV/E 82 ST
402339,YORK AV/E 84 ST
402345,YORK AV/E 86 ST
402346,YORK AV/E 84 ST
402347,YORK AV/E 82 ST
402348,YORK AV/E 79 ST
402349,YORK AV/E 77 ST
402351,YORK AV/E 72 ST
402355,YORK AV/E 64 ST
402446,5 AV/W 58 ST
402458,LEXINGTON AV/E 125 ST
402460,E 124 ST/3 AV
402461,E 124 ST/2 AV
402498,E 126 ST/2 AV
402502,E 125 ST/3 AV
402503,E 125 ST/LEXINGTON AV
402504,E 125 ST/PARK AV
402505,E 125 ST/MADISON AV
402506,W 125 ST/5 AV
402507,W 125 ST/MALCOLM X BL
402508,W 125 ST/ADAM C POWELL BL
402509,W 125 ST/FRED DOUGLASS BL
402510,W 125 ST/ST NICHOLAS AV
402512,W 125 ST/AMSTERDAM AV
402517,AMSTERDAM AV/W 135 ST
402518,AMSTERDAM AV/W 138 ST
402519,AMSTERDAM AV/W 140 ST
402520,AMSTERDAM AV/W 143 ST
402521,AMSTERDAM AV/W 145 ST
402526,AMSTERDAM AV/W 155 ST
402535,BROADWAY/W 173 ST
402634,3 AV/E 31 ST
402638,AMSTERDAM AV/W 158 ST
402639,AMSTERDAM AV/W 156 ST
402641,AMSTERDAM AV/W 152 ST
402642,AMSTERDAM AV/W 150 ST
402643,AMSTERDAM AV/W 148 ST
402644,AMSTERDAM AV/W 145 ST
402645,AMSTERDAM AV/W 143 ST
402646,AMSTERDAM AV/W 140 ST
402647,AMSTERDAM AV/W 138 ST
402653,W 125 ST/AMSTERDAM AV
402656,W 125 ST/ST NICHOLAS AV
402657,W 125 ST/FRED DOUGLASS BL
402658,W 125 ST/ADAM C POWELL BL
402659,W 125 ST/MALCOLM X  BL
402660,E 125 ST/5 AV
402661,E 125 ST/MADISON AV
402662,E 125 ST/PARK AV
402666,COOPER SQ/E 6 ST
402670,3 AV/E 17 ST
402673,3 AV/E 26 ST
402674,3 AV/E 29 ST
402677,3 AV/E 37 ST
402678,3 AV/E 39 ST
402679,3 AV/E 42 ST
402680,3 AV/E 45 ST
402681,3 AV/E 47 ST
402682,3 AV/E 50 ST
402687,3 AV/E 65 ST
402688,3 AV/E 67 ST
402689,3 AV/E 69 ST
402691,3 AV/E 75 ST
402692,3 AV/E 77 ST
402694,3 AV/E 82 ST
402696,3 AV/E 88 ST
402697,3 AV/E 91 ST
402704,3 AV/E 109 ST
402705,3 AV/E 112 ST
402707,3 AV/E 118 ST
402723,W 125 ST/MORNINGSIDE AV
402740,AMSTERDAM AV/W 171 ST
402741,AMSTERDAM AV/W 173 ST
402744,AMSTERDAM AV/W 179 ST
402745,AMSTERDAM AV/W 181 ST
402748,AMSTERDAM AV/W 187 ST
402749,AMSTERDAM AV/W 190 ST
402753,BOWERY/BAYARD ST
402755,BOWERY/GRAND ST
402757,BOWERY/DELANCEY ST
402760,BOWERY/E HOUSTON ST
402762,BOWERY/E 3 ST
402764,AMSTERDAM AV/W 188 ST
402766,AMSTERDAM AV/W 184 ST
402767,AMSTERDAM AV/W 181 ST
402769,AMSTERDAM AV/W 178 ST
402772,AMSTERDAM AV/W 172 ST
402773,AMSTERDAM AV/W 170 ST
402774,AMSTERDAM AV/W 168 ST
402805,LEXINGTON AV/E 122 ST
402809,LEXINGTON AV/E 114 ST
402811,LEXINGTON AV/E 110 ST
402816,LEXINGTON AV/E 100 ST
402819,LEXINGTON AV/E 94 ST
402826,LEXINGTON AV/E 79 ST
402829,LEXINGTON AV/E 74 ST
402831,LEXINGTON AV/E 70 ST
402835,LEXINGTON AV/E 62 ST
402838,LEXINGTON AV/E 56 ST
402841,LEXINGTON AV/E 49 ST
402842,LEXINGTON AV/E 47 ST
402843,LEXINGTON AV/E 45 ST
402845,LEXINGTON AV/E 40 ST
402846,LEXINGTON AV/E 37 ST
402851,LEXINGTON AV/E 28 ST
402852,LEXINGTON AV/E 26 ST
402854,3 AV/E 23 ST
402856,3 AV/E 17 ST
402857,5 AV/W 13 ST
402858,3 AV/E 11 ST
402862,BOWERY/BLEECKER ST
402863,BOWERY/E HOUSTON ST
402864,BOWERY/PRINCE ST
402865,BOWERY/KENMARE ST
402867,BOWERY/GRAND ST
402868,BOWERY/CANAL ST
402869,BOWERY/BAYARD ST
402870,PARK ROW/WORTH ST
403036,WEST END AV/W 72 ST
403037,WEST END AV/W 69 ST
403038,WEST END AV/W 66 ST
403047,CENTRAL PK S/AVE OF THE AMERICAS
403076,WEST END AV/W 66 ST
403103,BROADWAY/W 73 ST
403104,BROADWAY/W 75 ST
403105,BROADWAY/W 77 ST
403106,BROADWAY/W 79 ST
403107,BROADWAY/W 82 ST
403108,BROADWAY/W 84 ST
403109,BROADWAY/W 86 ST
403110,BROADWAY/W 88 ST
403111,BROADWAY/W 91 ST
403112,BROADWAY/W 93 ST
403114,BROADWAY/W 99 ST
403115,BROADWAY/W 101 ST
403116,BROADWAY/W 103 ST
403117,BROADWAY/W 106 ST
403118,BROADWAY/W 108 ST
403119,BROADWAY/CATHEDRAL PKY
403122,BROADWAY/W 116 ST
403125,BROADWAY/W 122 ST
403126,BROADWAY/LA SALLE ST
403127,BROADWAY/TIEMANN PL
403132,AV OF THE AMERICAS/W 50 ST
403139,MORNINGSIDE AV/W 125 ST
403142,BROADWAY/TIEMANN PL
403144,BROADWAY/LA SALLE ST
403145,BROADWAY/W 122 ST
403147,BROADWAY/W 116 ST
403148,BROADWAY/W 114 ST
403149,BROADWAY/W 112 ST
403150,BROADWAY/CATHEDRAL PY
403151,BROADWAY/W 108 ST
403152,BROADWAY/W 106 ST
403153,BROADWAY/W 104 ST
403154,BROADWAY/W 102 ST
403155,BROADWAY/W 100 ST
403158,BROADWAY/W 94 ST
403159,BROADWAY/W 92 ST
403162,BROADWAY/W 86 ST
403163,BROADWAY/W 84 ST
403164,BROADWAY/W 82 ST
403165,BROADWAY/W 79 ST
403166,BROADWAY/W 76 ST
403167,BROADWAY/W 74 ST
403168,BROADWAY/W 72 ST
403169,BROADWAY/W 70 ST
403171,BROADWAY/W 65 ST
403191,W 34 ST/11 AV
403192,W 34 ST/10 AV
403216,E 34 ST/2 AV
403238,W 42 ST/9 AV
403239,W 42 ST/8 AV
403240,W 42 ST/7 AV
403241,W 42 ST/BROADWAY
403242,W 42 ST/6 AV
403245,E 42 ST/LEXINGTON AV
403246,E 42 ST/3 AV
403247,E 42 ST/2 AV
403248,E 42 ST/1 AV
403249,E 41 ST/1 AV
403251,E 42 ST/1 AV
403252,E 42 ST/2 AV
403253,E 42 ST/3 AV
403254,E 42 ST/LEXINGTON AV
403257,W 42 ST/5 AV
403259,W 42 ST/7 AV
403264,11 AV/W 42 ST
403266,5 AV/W 56 ST
403267,CENTRAL PK N/5 AV
403271,BROADWAY/W 66 ST
403276,FRED DOUGLASS BL/W 128 ST
403292,AMSTERDAM AV/LA SALLE ST
403297,YORK AV/E 69 ST
403303,E HOUSTON ST/AV C
403304,AV C/E 3 ST
403305,AV C/E 6 ST
403306,AV C/E 8 ST
403307,AV C/E 10 ST
403311,BROADWAY/W HOUSTON ST
403312,W 10 ST/HUDSON ST
403313,W 10 ST/GREENWICH ST
403316,E 25 ST/PARK AV S
403317,ESSEX ST/GRAND ST
403318,ESSEX ST/DELANCEY ST
403319,ESSEX ST/RIVINGTON ST
403320,AV A/E HOUSTON ST
403323,W HOUSTON ST/LA GUARDIA PL
403326,E 105 ST/FDR  DR
403338,ADAM C POWELL BL/W 151 ST
403342,2 AV/E 94 ST
403350,WORTH ST/MOTT ST
403354,W 42 ST/BROADWAY
403359,E 34 ST/1 AV
403362,COLUMBUS AV/W 97 ST
403367,E 91 ST/YORK AV
403372,COLUMBUS AV/W 75 ST
403373,FT WASHINGTON AV/W 168 ST
403374,FT WASHINGTON AV/W 165 ST
403375,FT WASHINGTON AV/W 164 ST
403376,FT WASHINGTON AV/W 162 ST
403377,FT WASHINGTON AV/W 160 ST
403380,DELANCEY ST/COLUMBIA ST
403383,1 AV/E 91 ST
403392,MANHATTAN AV/CATHEDRAL PY
403397,WEST THAMES ST/SOUTH END AV
403399,SOUTH END AV/ALBANY ST
403415,PARK AV/E 125 ST
403416,LEXINGTON AV/E 116 ST
403417,LEXINGTON AV/E 106 ST
403418,LEXINGTON AV/E 96 ST
403419,LEXINGTON AV/E 86 ST
403421,LEXINGTON AV/E 72 ST
403422,LEXINGTON AV/E 68 ST
403424,LEXINGTON AV/E 50 ST
403425,LEXINGTON AV/E 42 ST
403427,3 AV/E 33 ST
403432,3 AV/E 72 ST
403433,3 AV/E 79 ST
403434,3 AV/E 86 ST
403436,3 AV/E 106 ST
403438,3 AV/E 122 ST
403439,W 179 ST/AMSTERDAM AV
403440,W 179 ST/ST NICHOLAS AV
403443,E 10 ST/AV D
403444,HUDSON ST/NORTH MOORE ST
403447,W 135 ST/BROADWAY
403454,BROADWAY/W 119 ST
403456,MADISON AV/E 37 ST
403457,MADISON AV/E 40  ST
403459,E 42 ST/PARK AV
403461,BROADWAY/W 133 ST
403465,W 42 ST/5 AV
403466,ST NICHOLAS AV/FORT GEORGE HILL
403472,AMSTERDAM AV/W 67 ST
403475,GRAND ST/ESSEX ST
403477,W 79 ST/RIVERSIDE DR
403480,1 AV/E 34 ST
403483,BROADWAY/W 145 ST
403486,W 42 ST/11 AV
403487,W 66 ST/WEST END AV
403488,W 65 ST/WEST END AV
403489,W 65 ST/AMSTERDAM AV
403491,W 65 ST/BROADWAY
403492,W 65 ST/CENTRAL PK W
403494,E 65 ST/5 AV
403495,E 68 ST/MADISON AV
403497,E 68 ST/LEXINGTON AV
403503,E 67 ST/1 AV
403504,E 67 ST/2 AV
403505,E 67 ST/3 AV
403506,E 67 ST/LEXINGTON AV
403508,E 67 ST/MADISON AV
403510,W 66 ST/CENTRAL PK W
403512,W 66 ST/BROADWAY
403513,W 66 ST/AMSTERDAM AV
403518,W 87 ST/WEST END AV
403519,W 34 ST/DYER AV
403522,W 79 ST/RIVERSIDE DR
403523,W 79 ST/BROADWAY
403525,2 AV/E 28 ST
403526,3 AV/E 11 ST
403528,W 34 ST/9 AV
403537,3 AV/E 125 ST
403545,3 AV/E 60 ST
403547,W 23 ST/10 AV
403555,AMSTERDAM AV/W 69 ST
403556,E 14 ST/IRVING PL
403557,DELANCEY ST/FDR DR
403560,W 86 ST/WEST END AV
403562,W 57 ST/8 AV
403563,YORK AV/E 69 ST
403573,W 65 ST/COLUMBUS AV
403590,PEARL ST/FULTON ST
403604,W 125 ST/AMSTERDAM AV
403606,W 72 ST/COLUMBUS AV
403608,WEST END AV/W 69 ST
403610,W 72 ST/CENTRAL PK W
403611,W 72 ST/COLUMBUS AV
403612,W 72 ST/AMSTERDAM AV
403617,E 57 ST/LEXINGTON AV
403620,E 57 ST/MADISON AV
403621,W 57 ST/AV OF THE AMERICAS
403626,WEST END AV/W 59 ST
403632,E 96 ST/2 AV
403647,ALLEN ST/DELANCEY ST
403670,W 179 ST/BROADWAY
403671,E 125 ST/LEXINGTON AV
403673,E 125 ST/2 AV
403676,E 125 ST/2 AV
403698,W 155 ST/AMSTERDAM AV
403711,E 135 ST/MADISON AV
403726,YORK AV/E 74 ST
403731,E HOUSTON ST/2 AV
403732,ESSEX ST/DELANCEY ST
403733,W 79 ST/AMSTERDAM AV
403735,YORK AV/E 67 ST
403736,W 57 ST/7 AV
403749,LEXINGTON AV/E 98 ST
403754,WATER ST/WALL ST
403757,W 135 ST/AMSTERDAM AV
403760,W 50 ST/7 AV
403763,W 125 ST/OLD BROADWAY
403765,3 AV/E 93 ST
403769,AV OF THE AMERICAS/W 31 ST
403772,3 AV/E 20 ST
403776,ST NICHOLAS AV/W 137 ST
403777,3 AV/E 97 ST
403779,W 66 ST/COLUMBUS AV
403781,CENTRAL PK S/COLUMBUS CI
403782,PARK AV S/E 23 ST
403786,W 135 ST/AMSTERDAM AV
403787,E 126 ST/3 AV
403793,4 AV/E 9 ST
403797,7 AV/W 50 ST
403802,10 AV/W 23 ST
403805,E 42 ST/MADISON AV
403808,E HOUSTON ST/COLUMBIA ST
403816,11 AV/W 34 ST
403821,LEXINGTON AV/E 34 ST
403822,LEXINGTON AV/E 31 ST
403826,FRED DOUGLASS BL/W 145 ST
403830,W 42 ST/AV OF THE AMERICAS
403831,WATER ST/JOHN ST
403832,FRED DOUGLASS BL/W 138 ST
403835,MARGARET CORBIN DR/CLOISTERS
403846,8 AV/W  57 ST
403847,AV OF THE AMERICAS/WEST BROADWAY
403849,ALLEN ST/E HOUSTON ST
403851,SPRING ST/HUDSON ST
403853,W HOUSTON ST/HUDSON ST
403854,WASHINGTON ST/W HOUSTON ST
403855,3 AV/E 23 ST
403870,E 14 ST/2 AV
403871,E 14 ST/3 AV
403876,HUDSON ST/BETHUNE ST
403878,VESEY ST/NORTH END AV
403886,AMSTERDAM AV/W 114 ST
403887,2 AV/E 54 ST
403893,E 14 ST/UNION SQ W
403894,W 14 ST/5 AV
403895,W 14 ST/6 AV
403896,W 14 ST/7 AV
403897,W 14 ST/8 AV
403902,RIVERSIDE DR/W 100 ST
403903,BROADWAY/W 129 ST
403906,E 14 ST/4 AV
403907,W 165 ST/AMSTERDAM AV
403908,AUDUBON AV/W 165 ST
403910,W 165 ST/AMSTERDAM AV
403913,3 AV/E 14 ST
403914,AV OF THE AMERICAS/W 20 ST
403942,CONVENT AV/W 129 ST
403953,STATE ST/BRIDGE ST
403954,W 49 ST/11 AV
403955,W 49 ST/12 AV
403956,12 AV/W 46 ST
403975,ST NICHOLAS AV/W 176 ST
403976,ST NICHOLAS AV/W 184 ST
403978,ST NICHOLAS AV/W 187 ST
403979,ST NICHOLAS AV/W 174 ST
403980,MADISON AV/E 121 ST
403981,CENTRAL PK W/W 69 ST
403982,FRED DOUGLASS BL/W 135 ST
403984,W 57 ST/9 AV
403986,W 57 ST/10 AV
403987,11 AV/W 57 ST
403989,E 79 ST/5 AV
403992,W 57 ST/10 AV
403993,E 68 ST/3 AV
403994,E 68 ST/2 AV
403995,E 68 ST/1 AV
403996,EAST 68 ST/YORK AV
403997,E 67 ST/YORK AV
404008,AMSTERDAM AV/W 190 ST
404010,E 8 ST/LAFAYETTE ST
404011,W 135 ST/BROADWAY
404012,W 135 ST/RIVERSIDE DR
404013,RIVERSIDE DR/W 137 ST
404014,RIVERSIDE DR/W 142 ST
404015,RIVERSIDE DR/W 144 ST
404017,RIVERSIDE DR/W 142 ST
404018,RIVERSIDE DR/W 139 ST
404019,W 135 ST/RIVERSIDE DR
404024,CENTRAL PK W/W 75 ST
404029,E 14 ST/1 AV
404030,COLUMBUS AV/W 61 ST
404031,RIVERSIDE DR/W 145 ST
404035,W 49 ST/7 AV
404036,WEST END AV/W 61 ST
404037,SUTTON PLACE/E 55 ST
404039,AV OF THE AMERICAS/W 38 ST
404040,AV OF THE AMERICAS/W 40 ST
404043,AV OF THE AMERICAS/W 45 ST
404046,ST NICHOLAS AV/W 190 ST
404049,CENTRAL PK W/W 63 ST
404050,7 AV/W 56 ST
404054,RIVERSIDE DR/W 94 ST
404056,RIVERSIDE DR/W 139 ST
404058,W 54 ST/11 AV
404066,ST NICHOLAS AV/W 167 ST
404071,ST NICHOLAS AV/W 124 ST
404075,W 96 ST/COLUMBUS AV
404076,E 106 ST/LEXINGTON AV
404077,E 106 ST/3 AV
404079,E 106 ST/LEXINGTON AV
404080,E 106 ST/MADISON AV
404081,5 AV/E 98 ST
404085,12 AV/W 23 ST
404087,E 96 ST/5 AV
404092,3 AV/ASTOR PL
404099,E 20 ST/E 20 ST Loop
404100,E HOUSTON ST/RIDGE ST
404101,FRANKFORT ST/WILLIAM ST
404103,MADISON AV/E 114 ST
404104,RIVERSIDE DR/W 103 ST
404105,2 AV/E 12 ST
404106,3 AV/E 14 ST
404108,CHURCH ST/VESEY ST
404116,W 43 ST/8 AV
404117,FT TRYON PARK/OPP CAFE LOT
404118,FT TRYON PARK/CAFE LOT
404120,UNION SQ E/E 15 ST
404122,5 AV/E  67 ST
404124,W 178 ST/ST NICHOLAS AV
404125,W 178 ST/AUDUBON AV
404129,ADAM C POWELL BL/W 149 ST
404130,RIVERSIDE DR/W 104 ST
404131,RIVERSIDE DR/W 94 ST
404132,AV OF THE AMERICAS/PRINCE ST
404133,HUDSON ST/BARROW ST
404134,CENTRAL PK W/W 79 ST
404135,FRED DOUGLASS BL/W 158 ST
404136,CENTRAL PK W/W 79 ST
404137,12 AV/W 23 ST
404138,BROADWAY/W 63 ST
404147,W 133 ST/AMSTERDAM AV
404153,7 AV/W 41 ST
404154,YORK AV/E 60 ST
404155,E HOUSTON ST/MOTT ST
404160,E 42 ST/MADISON AV
404161,10 AV/W 19 ST
404168,5 AV/E 96 ST
404171,LEXINGTON AV/E 59 ST
404191,MADISON AV/E 95 ST
404194,W 179 ST/WADSWORTH AV
404219,BROADWAY/WARREN ST
404224,BROADWAY/CHAMBERS ST
404225,BROADWAY/BARCLAY ST
404232,BROADWAY/W 131 ST
404244,7 AV/W 23 ST
404245,FRED DOUGLASS BL/W 119 ST
404253,1 AV/E 62 ST
404255,LEXINGTON AV/E 124 ST
404258,RIVERSIDE DR/W 122 ST
404259,RIVERSIDE DR/W 122 ST
404260,BROADWAY/W 113 ST
404262,BROADWAY/W 120 ST
404264,AV C/E 23 ST
404266,SUTTON PL/E 58 ST
404274,W 116 ST/MALCOLM X BL
404278,CENTRAL PK N/MALCOLM X BL
404279,10 AV/W 37 ST
404283,ADAM C POWELL BL/W 125 ST
404286,W 14 ST/HUDSON ST
404287,ESSEX ST/ E BROADWAY
404289,RIVERSIDE DR/W 74 ST
404290,RIVERSIDE DR/W 82 ST
404303,5 AV/W 78 ST
404308,W 86 ST/COLUMBUS AV
404320,AMSTERDAM AV/W 89 ST
404321,LEXINGTON AV/E 83 ST
404325,FRED DOUGLASS BL/MACOMBS PL
404327,PEARL ST / PEARL ST
404333,MALCOLM X BL/W 122 ST
404334,MALCOLM X BL/W 125 ST
404335,MALCOLM X BL/W 142 ST
404336,MALCOLM X BL/W 127 ST
404337,MALCOLM X BL/W 129 ST
404338,MALCOLM X BL/W 137 ST
404339,MALCOLM X BL/W 139 ST
404341,MALCOLM X BL / W 116 ST
404350,MAIN RWDY/OPP ICAHN STADIUM
404352,MAIN RDY/AFTER EXIT RAMP
404353,MAIN RDY/ICAHN STADIUM
404355,MAIN RDY/OPP CLARKE THOMAS BLDG
404356,SUNKEN GARDEN LOOP/EMPLOYMENT CTR
404681,E 86 ST/2 AV
404820,W 34 ST/7 AV
404821,RIVERSIDE DR/TIEMANN PL
404822,RIVERSIDE DR/TIEMANN PL
404824,FRED DOUGLASS BL/W 147 ST
404825,FRED DOUGLASS BL/W 148 ST
404826,WEST END AV/W 64 ST
404832,HUDSON ST/SPRING ST
404833,E 23 ST/PARK AV S
404834,W 23 ST/11 AV
404837,ADAM C POWELL BL/W 153 ST
404838,COLUMBUS AV/W 80 ST
404843,PIKE ST/MADISON ST
404844,PIKE ST/MADISON ST
404846,8 AV/W 49 ST
404847,8 AV/W 31 ST
404850,PEARL ST/FULTON ST
404851,PARK ROW/ST JAMES PL
404853,AMSTERDAM AV/W 161 ST
404854,LEXINGTON AV/E 77 ST
404855,RIVERSIDE DR/W 89 ST
404856,E 110 ST/MADISON AV
404857,PARK ROW/ST JAMES PL
404858,E 79 ST/MADISON AV
404859,YORK AV/E 87 ST
404860,E 79 ST/LEXINGTON AV
404863,HARRISON ST/HUDSON ST
404864,HARRISON ST/WEST ST
404865,W 70 ST/FREEDOM PL
404871,CENTRAL PK W/COLUMBUS CIR
404872,8 AV/W 46 ST
404876,W 168 ST/AUDUBON AV
404881,9 AV/W 23 ST
404895,6 AV/SPRING ST
404909,2 AV/E 36 ST
404911,W 106 ST/BROADWAY
404915,FREDERICK DOUGLASS BL/W 116 ST
404916,BROADWAY/PRINCE ST
404918,BROADWAY/W 167 ST
404919,8 AV/W 43 ST
404920,FT WASHINGTON AV/W 165 ST
404921,FT WASHINGTON AV/W 168 ST
404922,MADISON ST/GRAND ST
404926,W 24 St/11 AV
404927,W 24 ST/12 AV
404928,ST NICHOLAS AV/W 193 ST
404936,PARK AV S/E 18 ST
404938,E 60 ST/YORK AV
404940,W HOUSTON ST/VARICK ST
404947,LEXINGTON AV/E 92 ST
404948,W 49 ST/8 AV
404949,AMSTERDAM AV/W 161 ST
404950,E 34 ST /1 AV
404951,FERRY TERMINAL/FDR DRIVE
404963,ADAM C POWELL BL/WEST 119 ST
404969,CHAMBERS ST/GREENWICH ST
404973,CHAMBERS ST/GREENWICH ST
404976,CHAMBERS ST/W BROADWAY
404977,CHAMBERS ST/CHURCH ST
404978,MALCOLM X B / W 119 ST
404979,BATTERY PL/3 PL
404980,BATTERY PL/1 PL
404983,BATTERY PL/WEST ST
404986,BATTERY PL/3 PL
404987,CENTRAL PK W/W 66 ST
404988,CENTRAL PK W/W 64 ST
404990,SPRING ST/GREENWICH ST
404991,AV OF THE AMERICAS/W 18 ST
404992,AV OF THE AMERICAS/W 57 ST
404994,MADISON AV/E 66 ST
404995,1 AV/E 28 ST
405003,E 92 ST/YORK AV
405006,E BROADWAY/CATHERINE ST
405014,MALCOLM X BL/W 132 ST
405015,MAIN RDY/OPP PARK & RECREATION
405024,CHURCH ST/WORTH ST
405026,9 AV/W 40 ST
405053,MURRAY ST/NORTH END AV
405054,VESEY ST/NORTH END AV
405056,NORTH END AV/WARREN ST
405057,LEXINGTON AV/E 119 ST
405061,3 AV/E 21 ST
405062,NORTH END AV/WARREN ST
405063,MURRAY ST/NORTH END AV
405065,WEST ST/CHAMBERS ST
405066,LEXINGTON AV/E 89 ST
405069,AMSTERDAM AV/W 175 ST
405070,AMSTERDAM AV/W 165 ST
405071,W 70 ST/WEST END AV
405073,AMSTERDAM AV/W 158 ST
405074,AMSTERDAM AV/W 152 ST
405075,AMSTERDAM AV/W 164 ST
405076,AMSTERDAM AV/W 167 ST
405077,AMSTERDAM AV/W 176 ST
405078,AMSTERDAM AV/W 135 ST
405079,AMSTERDAM AV/W 125 ST
405084,BROAD ST/WATER ST
405086,WEST END AV/WEST 70 ST
405087,MANHATTAN AV/W 111 ST
405091,FT GEORGE AV/66 FORT GEORGE AV
405092,MANHATTAN AV/W 113 ST
405093,MANHATTAN AV/W 119 ST
405098,1 AV / 4 ST
405100,1 AV/E 82 ST
405103,AMSTERDAM AV/W 149 ST
405111,ST NICHOLAS AV/W 165 ST
405112,RIVERSIDE BL/W 69 ST
405118,W 42 ST/12 AV
405120,GREENWICH ST/HORATIO ST
405124,SOUTH END AV/GATEWAY PLAZA
405125,WEST THAMES ST/SOUTH END AV
405130,BOWERY/E 1 ST
405133,HUDSON ST/W 13 ST
405135,E 116 ST/3 AV
405138,1 AV/E 60 ST
405140,MAIN RDY/OPP GOLF CTR PARKING
405150,7 AV/WEST 14 ST
405151,10 AV/WEST 16 ST
405152, W 14 St/10 AV
405155,3 AV/E 9 ST
405157,11 AV/W 15 ST
405165,ESSEX ST/CANAL ST
405169,E 79 ST/LEXINGTON AV
405172,W HOUSTON ST/GREENE ST
405179,5 AV/W 44 ST
405181,3 AV/E 116 ST
405182,FRED DOUGLASS BL/W 125 ST
405185,AMSTERDAM AV/W 183 ST
405186,AMSTERDAM AV/W 185 ST
405193,E 49 ST/2 Av
405227,ST NICHOLAS AV/W 147 ST
405230,BROADWAY/DUANE ST
405231,E 23 ST/BROADWAY
405233,2 AV/E 92 ST
405234,BROADWAY/WEST 120 ST
405237,W 72 ST/BROADWAY
405241,E 42 ST/PARK AV
405247,FREDERICK DOUGLASS BL/114 ST
405248,BROADWAY/W 97 ST
405249,BROADWAY/W 97 ST
405256,TRINITY PL/MORRIS ST
405265,W 14 ST/9 AV
405266,BROADWAY/WALKER ST
405269,BOWERY/HESTER ST
405272,EAST 24 ST/LEXINGTON AV
405279,CHURCH ST/WARREN ST
405283,COLUMBUS AV/W 66 ST
405284,MALCOLM X BL/W 146 ST
405285,11 AV/W 34 ST
405289,FREDERICK DOUGLASS/W 121 ST
405290,COLUMBUS AV/W 63 ST
405291,7 AV/W 57 ST
405293,7 AV/WEST 55 ST
405297,7 AV/W 44 ST
405298,7 AV/W 17 ST
405299,W 58 ST/BROADWAY
405307,2 AV/E 89 ST
405308,WEST 66 ST/FREEDOM PL
405311,E HOUSTON ST/1 AV
405315,PLEASANT AV/E 117 ST
405316,9 AV/W 25 ST
405319,MADISON ST/CATHERINE ST
405320,ALLEN ST/GRAND ST
405323,1 AV/E 25 ST
405336,2 AV/E 28 ST
405337,WATER ST/GOUVERNEUR LA
405340,2 AV/E 13 ST
405342,2 AV/E 32 ST
405347,2 AV/E 106 ST
405348,2 AV/E 115 ST
405350,COLUMBIA ST/HOUSTON ST
405352,LEWIS ST/GRAND ST
405353,WEST END AV/W 61 ST
405359,PIKE ST/SOUTH  ST
405361,E HOUSTON ST/CROSBY ST
405365,E 72 ST/2 AV
405368,1 AV/E 23 ST
405369,E 79 ST/3 AV
405372,GRAND ST/FDR DRIVE
405373,ALLEN ST/HESTER ST
405374,W 41 ST/8 AV
405376,BROADWAY/WEST 57 ST
405377,BROADWAY/FRANKLIN ST
405380,MADISON AV/E 28 ST
405384,FREDERICK DOUGLASS BL/125 ST
405389,YORK AV/E 62 ST
405390,E 23 ST/1 AV
405393,8 AV/W  56 ST
405394,BROADWAY/WEST 105 ST
405396,1 AV/E 27 ST
405443,11 AV/W 54 ST
405444,11 AV/W 50 ST
405445,11 AV/ W 47 ST
405446,11 AV/W 44 ST
405447,11 AV/W 38 ST
405450,11 AV/W 26 ST
405451,11 AV/W 23 ST
405452,8 Av/W 12 ST
405455,12 AV/ W 27 ST
405456,12 AV/W 30 ST
405457,12 AV/W 33 ST
405458,12 AV/ W 40 ST
405459,12 AV/W 52 ST
405460,12 AV/W 55 ST
405468,WEST END AV/W 64 ST
405480,3 AV/E 57 ST
405486,5 AV/W 36 ST
405488,3 AV/E 53 ST
405489,MADISON AV/E 67 ST
405490,MADISON AV/E 63 ST
405491,5 AV/E 69 ST
405512,10 AV/W 40 ST
405531,11 AV/ W 18 ST
405541,BROADWAY/W 89 ST
405562,11 AV/W 58 ST
405564,11 AV/W 29 ST
414350,MAIN RWDY/TENNIS CENTER 2
450051,3 AV/E 63 ST
450123,5 AV/W 50 ST
450222,W 18 ST / 10 AV
503357,HOYT AV/31 ST
503848,LAGUARDIA/TERMINALS  C & D
503853,LAGUARDIA/TERMINAL A - MARINE AIR TERMINAL
503855,DITMARS BL/GRAND CENTRAL PY
503870,ASTORIA BL/STEINWAY ST
503876,23 AV/87 ST
504007,HOYT AV/31 ST
504023,94 ST/23 AV
504417,23 AV/82 ST
504423,ASTORIA BL S/77 ST
504517,ASTORIA BL N/77 ST
505254,ASTORIA BL S/STEINWAY ST
803001,W 57 ST/8 AV
803002,SOUTH ST/WHITEHALL ST
803003,146 ST/LENOX AV
803008,W 58 St/BROADWAY
803019,SOUTH ST/WHITEHALL ST
803020,AMSTERDAM AV/193 ST
803021,HELL GATE CIRCLE/CENTRAL RD
803024,W 146 ST/MALCOLM X  BL
803026,SUNKEN GARDEN LOOP/CHARLES H GAY CTR
803028,HELL GATE CIRCLE/Nr Tom CLARKE Bldg
803029,HELL GATE CIRCLE/Opp ODYSSEY House
803030,HELL GATE CIRCLE/FIELD 61
803034,SUNKEN GARDEN LOOP/Charles Gay CTR
803054,E 126 ST/2 AV
803055,12 AV/42 ST
803056,W 66 ST/FREEDOM PL
803057,W 66 ST/WEST END AV
803058,E 72 ST/YORK AV
803059,PLEASANT AV/E 120 ST
803066,E 105 ST/FDR DR
803067,MARGARET CORBIN DR/CLOISTERS
803077,PARK ROW/WORTH ST
803079,W 34 ST/HUDSON BL
803080,W 44 ST/6 AV
803081,W 44 St/6 AV
803082,W 31 ST/6 AV
803083,6 AV/W 31 ST
803094,VESEY ST/NORTH END AV
803095,W 57 ST/5 AV
803098,8 AV/W 34 ST
803099,9 AV/W 42 ST
803105,WARREN ST/CHURCH ST
803106,MURRAY ST/CHURCH ST
803107,MURRAY ST/GREENWICH ST
803108,SOUTH END AV/ALBANY ST
803109,E HOUSTON ST/FORSYTH ST
803115,GRAND ST/FDR DR
803117,E 57 ST/MADISON AV
803120,SOUTH FERRY/TERMINAL
803121,SOUTH FERRY/TERMINAL
803130,W 34 ST/12 AV
803131,W 34 ST/12 AV
803144,W 41 ST/8 AV
803147,WARREN ST/GREENWICH ST
803151,49 ST/1 AV
803153,E 126 ST/2 AV
803154,E 126 ST/2 AV
803156,BROADWAY / W 123 ST
803157,BROADWAY / W 135 ST
803158,LEXINGTON AV/E 64 ST
803159,YORK AV/E 74 ST
803160,AV OF THE AMERICAS/SPRING ST
803161,AMSTERDAM AV/W 120 ST
803162,5 AV/E 81 ST
803163,LEXINGTON AV/E 52 ST
803164,BATTERY PL/WASHINGTON ST
803165,MALCOLM X BL/W 124 ST
803166,W 86 ST/BROADWAY
803177,AV D/LOOP
803180,E 96 ST/5 AV
803182,2 AV/E 96 ST
803184,STATE ST/WHITEHALL ST
803185,STATE ST/WHITEHALL ST
803192,CENTRE ST/BROOME ST
803193,AV A/E 14 ST
803194,RIVERBANK/STATE PARK
803195,RIVERBANK/STATE PARK
803215,triboro br/ramp
803228,2 AV/E 111 ST
803238,RIVERS EDGE RD/MAN PSYCH CTR ENT
803239,MAIN ROADWAY/RIVERS EDGE RD
804142,LAGUARDIA/TERMINALS  C & D
804143,LAGUARDIA INTERNAL RY/term c loop
823252,LEWIS ST/Delancy (not used)
903002,AV C/E 20 ST
903003,E 97 ST/1 AV
903004,W 96 ST/WEST END AV
903025,GRAND ST/FDR DR
903027,WATERSIDE/WATERSIDE
903028,FERRY TERMINAL/FDR DR
903030,WEST ST/CHRISTOPHER ST
903042,3 AV /E 125 ST
903046,E 41 ST/1 AV
903048,E 8 ST/LAFAYETTE ST
903049,168 ST/AUDUBON AV
903054,MADISON ST/ST JAMES PL
903063,8 AV/12 ST
903074,W 54 ST/11 AV
903075,LEXINGTON AV/E 125 ST
903078,W 43 ST/9 AV
903080,1 AV/E 26 ST
903082,12 AV/W 42 ST
903088,DELANCY ST/COLUMBIA ST
903089,AMSTERDAM AV/W 129 ST
903092,BROADWAY/W 133 ST
903093,1 AV/E 1 ST
903094,E 60 ST/YORK AV
903102,1 AV/ E 97 ST
903105,LEXINGTON AV/E 68 ST
903128,E 32 ST/5 AV
903129,2 AV/E 86 ST
903130,CENTRE ST/BROOME ST
903147,ASTOR PL/3 AV
903148,3 AV/ASTOR PL
903169,central park south/7 Av (does not stop)
903176,AV OF THE AMERICAS/W 14 ST
903209,Columbus Circle (does not stop)
903218,"W 72 ST/Amsterdam av ( non-public,for GEO)"
903219,FT GEORGE AV/66 FT GEORGE AV
903228,110 ST/FREDERICK DOUGLAS BL
903229,BROADWAY/W 131 ST
903230,BROADWAY/W 133 ST
903231,W 178 ST/BROADWAY
903232,10 AV/W15 (does not stop)
903233,COL circle- does not stop
903234,W 58 ST/BROADWAY (does not stop)
903236,BROADWAY/W 135 ST
903237,11 AV / W 17 ST
903250,AV A/E HOUSTON ST
903266,2 AV/E 33 ST
903267,10 AV/W 34 ST
903275,1 AV/E 97 ST
903276,COOPER SQ/E 4 ST
903280,PARK ROW/SPRUCE ST
903281,PARK ROW/BEEKMAN ST
903282,PARK ROW/BEEKMAN ST
904046,lga/circle
904201,LGA-SBS60 W.B. (does not stop)
904202,LGA-MAT M60 W.B. (does not stop)
904242,LAGUARDIA/TERMINAL B
904245,La Guardia Rd/new road to Term B
904246,LAGUARDIA RD/94 ST
904918,EAST 92 ST/YORK AV
904920,PIKE ST/SOUTH ST
